Time,header.seq,header.stamp.secs,header.stamp.nsecs,header.frame_id,orientation.x,orientation.y,orientation.z,orientation.w,angular_velocity.x,angular_velocity.y,angular_velocity.z,linear_acceleration.x,linear_acceleration.y,linear_acceleration.z,magnetic_field.x,magnetic_field.y,magnetic_field.z
1646352410.3954766,8242,1646352410,390793323,,0.010698390090682856,-0.006742173638641217,-0.9984978928601418,0.053310838466027924,8.2e-05,0.001073,-5.1e-05,0.217,-0.139,-9.448,-3.0480000000000003e-05,3.4700000000000002e-06,1.752e-05
1646352410.4210403,8243,1646352410,415895700,,0.01071668848905549,-0.0067587611523801374,-0.998498066972815,0.05330180097393902,-0.00061,-0.000212,-0.000525,0.224,-0.159,-9.469,-3.0480000000000003e-05,4.1000000000000006e-06,1.781e-05
1646352410.4454696,8244,1646352410,440776348,,0.010726975002368473,-0.006784154471076478,-0.9984964071902672,0.053327592140834844,-0.00014,-0.000499,0.000577,0.197,-0.151,-9.449,-3.0480000000000003e-05,3.4700000000000002e-06,1.7820000000000002e-05
1646352410.4704328,8245,1646352410,465794563,,0.010718904764547302,-0.006793054074713315,-0.9984950382143222,0.053353708009525005,-0.001992,-0.00121,-3e-05,0.195,-0.159,-9.467,-3.066e-05,3.38e-06,1.811e-05
1646352410.4964592,8246,1646352410,490723133,,0.010701359299736089,-0.006794174698186239,-0.9984961424700366,0.05333641881271238,-0.000164,-0.00241,0.000979,0.209,-0.153,-9.493,-3.057000000000001e-05,3.5600000000000002e-06,1.771e-05
1646352410.5223804,8247,1646352410,516632318,,0.010701596454653278,-0.0067938011461386285,-0.9984942800694793,0.05337127287071994,-0.001133,-0.000743,0.001489,0.168,-0.159,-9.506,-3.057000000000001e-05,3.38e-06,1.772e-05
1646352410.5460842,8248,1646352410,541283130,,0.010692358049949688,-0.006785648022979368,-0.9984948915267445,0.05336272158759035,-0.001802,-8.5e-05,0.000107,0.183,-0.146,-9.474,-3.065e-05,3.7400000000000006e-06,1.7610000000000002e-05
1646352410.5683799,8249,1646352410,565667390,,0.010683703828143707,-0.00678602178856718,-0.9984945122276613,0.053371503932739046,-0.000659,-0.000415,-9.2e-05,0.159,-0.172,-9.485,-3.057000000000001e-05,3.29e-06,1.742e-05
1646352410.595539,8250,1646352410,591049432,,0.010683822264939804,-0.006785835321725509,-0.9984935805671116,0.05338893094141087,-0.0011,0.002107,0.00158,0.157,-0.135,-9.498,-3.057000000000001e-05,3.5600000000000002e-06,1.7610000000000002e-05
1646352410.6204038,8251,1646352410,615800619,,0.010682483531393852,-0.006759601596594072,-0.9984932919309115,0.053397924124712205,-8e-06,-0.000126,3.3e-05,0.207,-0.144,-9.467,-3.049e-05,3.2800000000000004e-06,1.792e-05
1646352410.646429,8252,1646352410,641242027,,0.010698919586765096,-0.006741333368254671,-0.9984937027570656,0.053389260142644036,-0.001579,0.002012,-0.000698,0.217,-0.11,-9.442,-3.03e-05,4.01e-06,1.752e-05
1646352410.6706204,8253,1646352410,665884256,,0.0107147143410637,-0.0067146324369249544,-0.9984955686599314,0.053354549705779464,0.000313,0.001179,0.001339,0.209,-0.143,-9.449,-3.058e-05,3.1e-06,1.742e-05
1646352410.6952538,8254,1646352410,690791606,,0.01073196546639854,-0.006713979564501941,-0.998496791548006,0.0533282726513173,0.001422,0.000158,-0.001196,0.244,-0.102,-9.459,-3.057000000000001e-05,3.6499999999999998e-06,1.771e-05
1646352410.7205439,8255,1646352410,715919733,,0.010739748169622485,-0.006696085817303354,-0.9984968216604749,0.05332839185565378,0.00133,0.000683,-0.000372,0.212,-0.087,-9.466,-3.0480000000000003e-05,3.4700000000000002e-06,1.7820000000000002e-05
1646352410.7456522,8256,1646352410,740905284,,0.01074875148191098,-0.0067046140586931365,-0.9984980719872307,0.0533020893557388,0.001844,0.000561,-0.001749,0.211,-0.126,-9.479,-3.057000000000001e-05,3.38e-06,1.732e-05
1646352410.7705274,8257,1646352410,765752077,,0.010749392380802221,-0.006713046181769338,-0.9984966176552554,0.05332813615175155,0.001042,-0.000636,0.001178,0.21,-0.148,-9.453,-3.057000000000001e-05,3.2000000000000003e-06,1.7820000000000002e-05
1646352410.795124,8258,1646352410,790711879,,0.010758977854710305,-0.006730100430691643,-0.9984968786216527,0.05331916659636575,0.000359,0.00037,-0.000891,0.17,-0.125,-9.463,-3.066e-05,3.4700000000000002e-06,1.771e-05
1646352410.8203113,8259,1646352410,815724611,,0.010750788504458004,-0.006739186759787995,-0.998496441565938,0.05332785471504187,0.001535,-0.001342,-0.000324,0.189,-0.155,-9.483,-3.057000000000001e-05,3.4700000000000002e-06,1.742e-05
1646352410.8463328,8260,1646352410,841118097,,0.01073469866634002,-0.006766354403199618,-0.9984969039701872,0.0533189971265766,0.001489,-0.000611,-0.000721,0.208,-0.146,-9.475,-3.0390000000000002e-05,3.92e-06,1.772e-05
1646352410.8707602,8261,1646352410,865932464,,0.010726975002368473,-0.006784154471076478,-0.9984964071902672,0.053327592140834844,0.000574,0.000168,-0.000139,0.181,-0.161,-9.479,-3.066e-05,3.38e-06,1.8010000000000002e-05
1646352410.8956542,8262,1646352410,890880823,,0.010727846387395214,-0.0068016751382966485,-0.9984967539637336,0.053318691385747144,1.9e-05,-0.000631,0.000549,0.166,-0.173,-9.463,-3.066e-05,3.5600000000000002e-06,1.7610000000000002e-05
1646352410.9203773,8263,1646352410,915689468,,0.010737728436525675,-0.0068182607562595,-0.9984946865431777,0.05335328905816572,0.000433,0.001233,0.00135,0.19,-0.171,-9.506,-3.057000000000001e-05,3.38e-06,1.762e-05
1646352410.945099,8264,1646352410,940796613,,0.010729301847318956,-0.0068277220892916275,-0.9984961102251878,0.05332712403748945,-0.001033,-0.000504,-0.000388,0.182,-0.186,-9.479,-3.0480000000000003e-05,3.6499999999999998e-06,1.762e-05
1646352410.9706652,8265,1646352410,965783596,,0.010729480592988368,-0.0068274411944863195,-0.9984947137821661,0.0533532645862495,-0.000965,0.001255,0.000121,0.199,-0.157,-9.443,-3.057000000000001e-05,3.29e-06,1.772e-05
1646352410.9960718,8266,1646352410,991011142,,0.010737668935567084,-0.0068183544603575815,-0.9984951521004383,0.053344575546212275,-0.000447,0.000195,-0.00014,0.213,-0.145,-9.479,-3.083e-05,3.4700000000000002e-06,1.73e-05
1646352411.0205486,8267,1646352411,15872716,,0.010745510683730206,-0.0068003668085675085,-0.9984947185263758,0.053353407448336124,-0.000679,0.000571,-0.001288,0.213,-0.135,-9.454,-3.066e-05,3.5600000000000002e-06,1.8010000000000002e-05
1646352411.0456219,8268,1646352411,40778160,,0.010762183917030965,-0.006781724184000209,-0.9984932659546025,0.05337959776674523,-0.000933,-0.000579,0.000545,0.227,-0.121,-9.472,-3.066e-05,3.4700000000000002e-06,1.721e-05
1646352411.0702899,8269,1646352411,65762758,,0.010769558815563908,-0.006755022554550734,-0.9984928901802842,0.053388524353353714,-0.000993,-0.000719,-0.000357,0.229,-0.125,-9.465,-3.04e-05,3.2800000000000004e-06,1.773e-05
1646352411.0955615,8270,1646352411,90934276,,0.010768161103574278,-0.006728882069501711,-0.998493066684183,0.05338880628144821,-0.00101,9.3e-05,-0.001312,0.213,-0.09,-9.482,-3.0480000000000003e-05,3.92e-06,1.7910000000000003e-05
1646352411.1211827,8271,1646352411,115966796,,0.010766646397654919,-0.006702929494290727,-0.9984941741670194,0.05337166117017906,-0.000411,-0.001033,-0.001117,0.194,-0.118,-9.47,-3.0480000000000003e-05,3.4700000000000002e-06,1.772e-05
1646352411.145636,8272,1646352411,140913486,,0.010757467205664149,-0.006694683059904287,-0.9984943197647427,0.05337182323652098,0.000252,0.000198,-0.000872,0.182,-0.123,-9.485,-3.057000000000001e-05,3.2000000000000003e-06,1.762e-05
1646352411.1706614,8273,1646352411,165742397,,0.010739749631689818,-0.006686622528822011,-0.9984931545929203,0.053398193678103036,0.001122,-0.001049,0.001253,0.197,-0.111,-9.444,-3.057000000000001e-05,3.7400000000000006e-06,1.7610000000000002e-05
1646352411.195294,8274,1646352411,190755128,,0.01073980798307036,-0.006686528806571446,-0.9984926885677533,0.053406907172622906,0.001583,0.000428,0.000117,0.181,-0.138,-9.456,-3.066e-05,3.29e-06,1.7610000000000002e-05
1646352411.21947,8275,1646352411,216207265,,0.010723313263939906,-0.006704890539422574,-0.9984927454518385,0.05340685607248888,0.000469,-0.000739,0.000648,0.207,-0.153,-9.469,-3.057000000000001e-05,3.830000000000001e-06,1.771e-05
1646352411.2465658,8276,1646352411,241041421,,0.010724304050666943,-0.006722223937414017,-0.9984921621782162,0.05341538239715794,-0.000771,-0.001304,0.000451,0.167,-0.166,-9.481,-3.057000000000001e-05,3.5600000000000002e-06,1.771e-05
1646352411.270674,8277,1646352411,265825986,,0.010724946399259984,-0.006730656648917071,-0.9984907047265575,0.05344142925174918,-0.000571,0.001364,0.001824,0.204,-0.172,-9.457,-3.0480000000000003e-05,3.4700000000000002e-06,1.772e-05
1646352411.2962863,8278,1646352411,290882349,,0.010743188170197987,-0.006747335738483958,-0.9984913459809827,0.0534236779851175,-0.000445,-0.001468,0.000896,0.185,-0.17,-9.466,-3.065e-05,3.830000000000001e-06,1.7610000000000002e-05
1646352411.3204849,8279,1646352411,315889358,,0.010752774965987979,-0.006764389002311345,-0.9984916072816,0.053414708275562585,-0.000142,0.000869,-7e-06,0.2,-0.141,-9.519,-3.057000000000001e-05,3.7400000000000006e-06,1.7910000000000003e-05
1646352411.3433394,8280,1646352411,340492010,,0.010761954507871003,-0.006772635027263116,-0.9984914611872271,0.053414545642121315,0.000523,-0.00023,-0.000173,0.212,-0.145,-9.507,-3.0480000000000003e-05,3.4700000000000002e-06,1.752e-05
1646352411.370893,8281,1646352411,365702390,,0.010762538992526152,-0.006781160668072055,-0.9984904696366875,0.0534318786786993,0.000681,-0.001302,-0.000403,0.202,-0.14,-9.5,-3.058e-05,3.01e-06,1.7230000000000003e-05
1646352411.3955028,8282,1646352411,390906095,,0.01075352967566653,-0.006782097496453513,-0.9984928871153624,0.05338838013174217,-0.000379,-0.00091,0.000595,0.216,-0.135,-9.474,-3.075e-05,3.2000000000000003e-06,1.7610000000000002e-05
1646352411.4213285,8283,1646352411,415941238,,0.01074370733175735,-0.006765419007351655,-0.998494489658034,0.0533624960151492,-0.000973,0.000752,-0.000142,0.21,-0.136,-9.471,-3.066e-05,3.4700000000000002e-06,1.7610000000000002e-05
1646352411.4462183,8284,1646352411,441006898,,0.010734003648118174,-0.006748552660325049,-0.9984951601143042,0.053354038563007994,8.5e-05,0.000103,0.000227,0.189,-0.122,-9.436,-3.0480000000000003e-05,3.7400000000000006e-06,1.722e-05
1646352411.471662,8285,1646352411,465843200,,0.010715062600781686,-0.006723532968435,-0.9984964410845413,0.053337029157884075,-0.000394,-0.000484,0.000336,0.191,-0.127,-9.45,-3.057000000000001e-05,3.38e-06,1.7910000000000003e-05
1646352411.4961855,8286,1646352411,490780115,,0.010705883690999956,-0.006715286208561845,-0.9984965864000555,0.053337190898739284,0.000298,-0.00039,-0.000909,0.182,-0.111,-9.474,-3.057000000000001e-05,3.5600000000000002e-06,1.7910000000000003e-05
1646352411.5203643,8287,1646352411,515871286,,0.010705476761274616,-0.006706479259151579,-0.9984961794703302,0.05334599784814964,0.001157,-0.000233,-0.001326,0.181,-0.142,-9.471,-3.056e-05,4.01e-06,1.781e-05
1646352411.5453413,8288,1646352411,540879011,,0.010714831531875833,-0.006714445428858608,-0.9984946372952885,0.05337197673289164,0.000619,-3e-06,0.001482,0.181,-0.132,-9.468,-3.057000000000001e-05,3.5600000000000002e-06,1.771e-05
1646352411.570797,8289,1646352411,565888881,,0.01071517994693735,-0.006723345954289014,-0.9984955100256895,0.053354456200226046,0.000766,0.000127,0.000821,0.211,-0.177,-9.461,-3.057000000000001e-05,3.4700000000000002e-06,1.771e-05
1646352411.5958867,8290,1646352411,590831756,,0.010725349100196636,-0.006748925986002111,-0.9984947812880953,0.05336282062590934,0.001765,0.001609,0.000705,0.199,-0.147,-9.483,-3.057000000000001e-05,3.6499999999999998e-06,1.8010000000000002e-05
1646352411.6210573,8291,1646352411,615733385,,0.010717507964064779,-0.0067669135334158595,-0.9984952157138832,0.05335398861151148,-0.000743,-0.000146,-7.4e-05,0.185,-0.175,-9.469,-3.0390000000000002e-05,3.830000000000001e-06,1.752e-05
1646352411.6451726,8292,1646352411,640816450,,0.010718904764547302,-0.006793054074713315,-0.9984950382143222,0.053353708009525005,0.000512,-0.001293,0.000156,0.17,-0.163,-9.482,-3.0480000000000003e-05,3.830000000000001e-06,1.762e-05
1646352411.6704965,8293,1646352411,665784358,,0.0107192516482036,-0.006801954674715978,-0.9984959099398832,0.05333618743433139,0.000507,0.000195,0.000181,0.203,-0.184,-9.497,-3.0390000000000002e-05,3.830000000000001e-06,1.772e-05
1646352411.6952565,8294,1646352411,690724134,,0.0107192516482036,-0.006801954674715978,-0.9984959099398832,0.05333618743433139,-0.000502,-0.000774,-0.000866,0.189,-0.142,-9.466,-3.049e-05,3.3700000000000003e-06,1.7820000000000002e-05
1646352411.7211742,8295,1646352411,715949773,,0.010727381093627968,-0.0067929616100742,-0.9984968132815266,0.053318785001837475,-0.000768,0.000872,-0.000653,0.187,-0.143,-9.467,-3.057000000000001e-05,3.4700000000000002e-06,1.781e-05
1646352411.7453587,8296,1646352411,740815162,,0.010726738184168307,-0.0067845289090083995,-0.998498268066078,0.05329273800860338,-0.001017,0.001451,0.000223,0.208,-0.151,-9.473,-3.049e-05,3.3700000000000003e-06,1.752e-05
1646352411.7697802,8297,1646352411,765774488,,0.01074364093471373,-0.006774976339778409,-0.998498618574256,0.05328398052288728,-0.001417,0.000395,-0.000449,0.202,-0.125,-9.458,-3.066e-05,3.4700000000000002e-06,1.751e-05
1646352411.796035,8298,1646352411,791118621,,0.01076054385110847,-0.006765424066528848,-0.9984989686091523,0.053275223318984384,-0.00019,-0.000544,0.001081,0.196,-0.133,-9.449,-3.074e-05,3.5600000000000002e-06,1.751e-05
1646352411.8210974,8299,1646352411,816153764,,0.010760602890161364,-0.00676533016281149,-0.9984985036571039,0.05328393686424557,-0.000128,0.000109,-0.000956,0.219,-0.129,-9.473,-3.057000000000001e-05,3.2000000000000003e-06,1.752e-05
1646352411.8463337,8300,1646352411,841168403,,0.010750782758862508,-0.006748650847439338,-0.9985001032641823,0.053258052566992606,-0.000308,-0.000799,0.001711,0.203,-0.134,-9.445,-3.057000000000001e-05,3.6499999999999998e-06,1.722e-05
1646352411.8713748,8301,1646352411,865888595,,0.010759614021412943,-0.006747996970919303,-0.9984990865359974,0.0532754111177896,-0.000736,5.4e-05,0.000916,0.196,-0.129,-9.487,-3.057000000000001e-05,3.92e-06,1.751e-05
1646352411.895974,8302,1646352411,890917539,,0.010750494441729442,-0.006739655845014087,-0.9984987674820585,0.05328428703810441,0.000604,0.00024,0.000498,0.208,-0.103,-9.495,-3.065e-05,4.01e-06,1.76e-05
1646352411.9213197,8303,1646352411,916226148,,0.010758512556794877,-0.006721386901384073,-0.9984969373148386,0.053319260484129376,0.00158,0.000516,-0.000257,0.197,-0.125,-9.495,-3.066e-05,3.5600000000000002e-06,1.7910000000000003e-05
1646352411.945979,8304,1646352411,940952777,,0.010749681777231256,-0.006722041136602073,-0.9984979548175602,0.0533019017465166,0.000652,-0.000852,-0.000601,0.184,-0.132,-9.462,-3.057000000000001e-05,3.2000000000000003e-06,1.752e-05
1646352411.9709418,8305,1646352411,965794324,,0.010741374714453338,-0.006731314876244926,-0.9984984482053058,0.0532931627967123,0.001379,-0.000381,-0.001701,0.187,-0.141,-9.455,-3.057000000000001e-05,3.5600000000000002e-06,1.771e-05
1646352411.9965034,8306,1646352411,990998744,,0.01074242264010832,-0.0067485544710992,-0.9984974002796507,0.053310402391566744,-0.000596,0.000988,-6.5e-05,0.172,-0.13,-9.446,-3.04e-05,3.3700000000000003e-06,1.7530000000000003e-05
1646352412.020813,8307,1646352412,16104698,,0.010734174397954235,-0.006757734547269641,-0.998497428238573,0.05331037727064653,0.000653,-0.000296,-0.000255,0.188,-0.16,-9.454,-3.066e-05,3.38e-06,1.722e-05
1646352412.0455625,8308,1646352412,41012287,,0.01073463961834993,-0.006766448080859943,-0.9984973692281942,0.05331028359527376,-0.000702,0.00087,-0.000437,0.17,-0.14,-9.439,-3.057000000000001e-05,3.7400000000000006e-06,1.781e-05
1646352412.070713,8309,1646352412,65824508,,0.010726162358709084,-0.00676654021435062,-0.9984955945466079,0.053345206397560886,-0.001863,0.000352,0.001922,0.197,-0.132,-9.467,-3.049e-05,3.2800000000000004e-06,1.772e-05
1646352412.09607,8310,1646352412,90882778,,0.010733885862019631,-0.006748740003002758,-0.9984960911658668,0.053336611526773194,-0.000473,-0.000273,0.000227,0.224,-0.143,-9.48,-3.0480000000000003e-05,3.92e-06,1.771e-05
1646352412.1202705,8311,1646352412,115701198,,0.010734816759867719,-0.00676616704633312,-0.9984959732260539,0.05333642417699975,0.00079,-0.000462,0.000322,0.197,-0.147,-9.493,-3.04e-05,3.55e-06,1.762e-05
1646352412.14574,8312,1646352412,140949249,,0.010743471167538043,-0.00676579402936347,-0.9984963517522211,0.05332764194983075,-0.000897,0.000586,0.001002,0.197,-0.125,-9.483,-3.0480000000000003e-05,3.5600000000000002e-06,1.772e-05
1646352412.1705909,8313,1646352412,165823221,,0.010752709105452353,-0.0067739470217939475,-0.9984957403075547,0.0533361929303882,-0.000642,0.000436,0.001371,0.207,-0.147,-9.492,-3.0480000000000003e-05,3.830000000000001e-06,1.771e-05
1646352412.1957436,8314,1646352412,190824985,,0.010753233740601258,-0.006782566701244913,-0.9984952156724058,0.05334481260983926,9.6e-05,0.001335,-0.000427,0.183,-0.141,-9.464,-3.056e-05,4.3700000000000005e-06,1.77e-05
1646352412.2216241,8315,1646352412,215919733,,0.010752768218882361,-0.006773853186447316,-0.9984952748234464,0.05334490644747505,-0.000418,0.00016,0.000868,0.181,-0.132,-9.456,-3.056e-05,4.1900000000000005e-06,1.77e-05
1646352412.245338,8316,1646352412,240740776,,0.010734587184438739,-0.006757078821261546,-0.9984941698299659,0.053371371908076906,-0.001244,-0.001096,0.000237,0.175,-0.142,-9.45,-3.056e-05,4.1900000000000005e-06,1.76e-05
1646352412.2703755,8317,1646352412,265758514,,0.010725991689159891,-0.006757358693003715,-0.9984933249794805,0.053388867539963074,0.001149,-9.1e-05,0.000403,0.209,-0.134,-9.442,-3.065e-05,3.92e-06,1.78e-05
1646352412.295204,8318,1646352412,290659904,,0.010734121430946951,-0.006748365315591617,-0.9984942287585825,0.05337146558298978,0.000156,5.8e-05,-0.002165,0.184,-0.131,-9.454,-3.056e-05,4.01e-06,1.7310000000000002e-05
1646352412.3213015,8319,1646352412,315797567,,0.010734121430946951,-0.006748365315591617,-0.9984942287585825,0.05337146558298978,-0.001063,0.00061,-0.001018,0.18,-0.147,-9.451,-3.0480000000000003e-05,4.1000000000000006e-06,1.771e-05
1646352412.345263,8320,1646352412,340924263,,0.010725702458432686,-0.006748364398785412,-0.9984919858486273,0.053415101617229316,0.000701,-0.000497,0.000903,0.185,-0.139,-9.457,-3.065e-05,3.830000000000001e-06,1.741e-05
1646352412.370446,8321,1646352412,365672111,,0.010717455177222019,-0.006757545339146037,-0.9984920136499424,0.05341507664317929,0.000251,0.0007,0.000131,0.201,-0.129,-9.463,-3.066e-05,3.4700000000000002e-06,1.7910000000000003e-05
1646352412.3960776,8322,1646352412,390965223,,0.010717455177222019,-0.006757545339146037,-0.9984920136499424,0.05341507664317929,0.000614,-0.00103,-4.2e-05,0.194,-0.127,-9.48,-3.0480000000000003e-05,3.4700000000000002e-06,1.792e-05
1646352412.419956,8323,1646352412,416094779,,0.0107179803576319,-0.006766165293719585,-0.9984914884695327,0.0534236965977527,-0.000234,0.00133,0.000193,0.184,-0.135,-9.487,-3.057000000000001e-05,3.38e-06,1.772e-05
1646352412.4457202,8324,1646352412,440973043,,0.0107179803576319,-0.006766165293719585,-0.9984914884695327,0.0534236965977527,-0.000153,0.001474,0.000661,0.2,-0.166,-9.457,-3.0480000000000003e-05,3.7400000000000006e-06,1.762e-05
1646352412.4712017,8325,1646352412,465770244,,0.01072797385051066,-0.006792025443608709,-0.9984921565377812,0.05340592008351594,0.001191,0.000133,0.00079,0.186,-0.157,-9.495,-3.049e-05,3.3700000000000003e-06,1.732e-05
1646352412.496672,8326,1646352412,490937232,,0.010719667135969816,-0.006801299860204285,-0.9984926499546256,0.05339718197896625,0.000564,0.001156,0.000556,0.199,-0.169,-9.448,-3.057000000000001e-05,3.4700000000000002e-06,1.752e-05
1646352412.5208995,8327,1646352412,515949964,,0.010738372757485614,-0.006826693138319811,-0.9984932298790417,0.05337933586169652,0.00081,0.000438,-0.001419,0.188,-0.141,-9.444,-3.066e-05,3.4700000000000002e-06,1.751e-05
1646352412.5463085,8328,1646352412,541053771,,0.010738719277671267,-0.006835594062319844,-0.9984941017583342,0.05336181514817449,0.000363,-0.000205,-0.000292,0.212,-0.167,-9.442,-3.0480000000000003e-05,3.4700000000000002e-06,1.7820000000000002e-05
1646352412.5711102,8329,1646352412,565836191,,0.0107564923697022,-0.006843561290328321,-0.9984947994860097,0.053344155632640854,-0.001018,0.000983,-0.000627,0.22,-0.148,-9.445,-3.057000000000001e-05,3.830000000000001e-06,1.781e-05
1646352412.596295,8330,1646352412,590990304,,0.010764740293139754,-0.006834380924315917,-0.9984947721671209,0.05334418017677149,-0.000427,0.000285,0.000739,0.197,-0.131,-9.479,-3.049e-05,3.1e-06,1.792e-05
1646352412.6209602,8331,1646352412,615873336,,0.010763868748654794,-0.006816859969722208,-0.9984944257420411,0.05335308155848545,-0.001016,-0.000948,3.5e-05,0.224,-0.134,-9.478,-3.04e-05,3.6400000000000003e-06,1.772e-05
1646352412.64531,8332,1646352412,640803575,,0.010780711216722454,-0.006807400762993383,-0.9984952419706616,0.053335610266157775,0.000672,-0.000646,0.000446,0.207,-0.152,-9.51,-3.057000000000001e-05,3.5600000000000002e-06,1.7610000000000002e-05
1646352412.6704192,8333,1646352412,665921688,,0.010771878951709227,-0.006808055546348947,-0.9984962598689078,0.05331825232816508,0.000625,-0.000867,-0.001041,0.2,-0.131,-9.481,-3.0390000000000002e-05,3.92e-06,1.7820000000000002e-05
1646352412.6962445,8334,1646352412,690943002,,0.010780127114188902,-0.006798875397712785,-0.9984962320699903,0.05331827730488374,0.000501,-0.000675,0.000889,0.202,-0.151,-9.472,-3.083e-05,3.6499999999999998e-06,1.76e-05
1646352412.7215092,8335,1646352412,716092109,,0.010762116388565853,-0.006791282956856556,-0.9984973960716949,0.05330108220931213,-0.000125,-0.002013,0.000524,0.179,-0.136,-9.469,-3.058e-05,3.1e-06,1.762e-05
1646352412.7459447,8336,1646352412,740920066,,0.010743581811482706,-0.006775070095474415,-0.9984990835266854,0.05327526697662324,0.000202,-0.000481,-0.000734,0.17,-0.125,-9.469,-3.049e-05,3.1e-06,1.713e-05
1646352412.7713537,8337,1646352412,765889644,,0.010725977455957303,-0.006776283383079215,-0.9985006516221897,0.05324926385584188,0.001385,-0.00063,-0.000427,0.167,-0.124,-9.467,-3.056e-05,4.1000000000000006e-06,1.771e-05
1646352412.7957313,8338,1646352412,790732383,,0.010717500510919704,-0.006776375286896902,-0.9984988789946793,0.05328418683942209,0.000802,0.000981,-9e-06,0.179,-0.164,-9.45,-3.057000000000001e-05,3.7400000000000006e-06,1.781e-05
1646352412.8213785,8339,1646352412,816076517,,0.010709192811583315,-0.006785648604172802,-0.9984993714263017,0.053275448600883055,0.000625,-0.00052,-0.000499,0.193,-0.143,-9.459,-3.031e-05,3.3700000000000003e-06,1.743e-05
1646352412.846532,8340,1646352412,841015338,,0.010710063273497761,-0.006803169167941539,-0.9984997177186546,0.05326654813029523,0.000406,-0.000994,0.000756,0.159,-0.165,-9.462,-3.0480000000000003e-05,3.7400000000000006e-06,1.781e-05
1646352412.8711734,8341,1646352412,865761041,,0.010728538934371859,-0.006819476693998209,-0.9984984956586078,0.05328365000120322,-0.000684,0.001037,0.000393,0.203,-0.134,-9.474,-3.049e-05,3.3700000000000003e-06,1.762e-05
1646352412.895707,8342,1646352412,890721321,,0.01072900392152834,-0.00682819023690116,-0.9984984361094269,0.05328355637501016,-0.00025,-0.000162,-0.000761,0.208,-0.156,-9.454,-3.066e-05,3.5600000000000002e-06,1.781e-05
1646352412.920776,8343,1646352412,915843725,,0.010746776535971095,-0.006836158704423145,-0.9984991326688849,0.05326589704246418,-0.001084,0.000167,-0.000163,0.229,-0.162,-9.449,-3.066e-05,3.29e-06,1.722e-05
1646352412.9437916,8344,1646352412,940855503,,0.010763798229227902,-0.006826418884898101,-0.9984985534699329,0.053274565895366575,-0.000426,8.4e-05,-0.000702,0.23,-0.158,-9.473,-3.057000000000001e-05,3.4700000000000002e-06,1.752e-05
1646352412.9711275,8345,1646352412,965922117,,0.010790343912185014,-0.006833827849365542,-0.9984986972504264,0.05326555044663846,8.9e-05,0.000148,0.000679,0.198,-0.133,-9.458,-3.04e-05,3.6400000000000003e-06,1.772e-05
1646352412.99603,8346,1646352412,990886211,,0.010807484681067394,-0.006823899023093034,-0.9984971873111362,0.05329164670697357,-0.000283,-0.00024,0.001026,0.213,-0.137,-9.443,-3.056e-05,4.1000000000000006e-06,1.721e-05
1646352413.0208027,8347,1646352413,15990495,,0.010807425130902987,-0.006823993335928971,-0.9984976523304656,0.05328293317319915,3.3e-05,0.00013,0.000565,0.207,-0.146,-9.472,-3.066e-05,3.38e-06,1.751e-05
1646352413.0452595,8348,1646352413,40744543,,0.01078987908215756,-0.006825114304183493,-0.9984987568488045,0.0532656446081246,-0.000566,-0.001997,-0.001556,0.198,-0.129,-9.485,-3.0480000000000003e-05,3.6499999999999998e-06,1.762e-05
1646352413.0712702,8349,1646352413,65966367,,0.01078099820816667,-0.006816396525711992,-0.9984965785052328,0.05330937562364847,0.000654,-0.000783,-0.000746,0.191,-0.123,-9.48,-3.074e-05,3.38e-06,1.781e-05
1646352413.0960045,8350,1646352413,90868473,,0.010754273783024765,-0.0068092703443281884,-0.9984978295074447,0.0532922499215362,-0.000214,-0.001271,-0.000968,0.195,-0.148,-9.492,-3.04e-05,3.55e-06,1.772e-05
1646352413.1213188,8351,1646352413,116152763,,0.010745619742292644,-0.006809642967177756,-0.9984974513482157,0.053301032542825276,0.000432,2e-05,-0.000219,0.191,-0.134,-9.491,-3.065e-05,4.1000000000000006e-06,1.79e-05
1646352413.1460493,8352,1646352413,140899658,,0.010736213100508488,-0.006792307607462453,-0.9984957957460355,0.05333614312187608,-0.000408,-0.000392,0.000128,0.166,-0.111,-9.466,-3.057000000000001e-05,3.4700000000000002e-06,1.702e-05
1646352413.1701033,8353,1646352413,165776491,,0.010727093406567141,-0.00678396724901063,-0.9984954762961225,0.05334501918258669,-0.001126,0.000798,0.002002,0.182,-0.131,-9.486,-3.049e-05,3.3700000000000003e-06,1.752e-05
1646352413.195663,8354,1646352413,190839052,,0.010727152607441105,-0.006783873637202759,-0.9984950107349905,0.053353732697369254,0.000384,0.000138,-0.000159,0.182,-0.113,-9.475,-3.0390000000000002e-05,3.830000000000001e-06,1.752e-05
1646352413.2206972,8355,1646352413,215772151,,0.010718032693134174,-0.006775533515475973,-0.9984946909848139,0.05336260859357145,0.000587,0.000468,-0.000195,0.209,-0.114,-9.438,-3.0480000000000003e-05,4.01e-06,1.751e-05
1646352413.2460992,8356,1646352413,240909576,,0.010744697872462235,-0.0067827522578086585,-0.9984939057151078,0.05337102199909471,6e-06,0.000239,-0.000592,0.214,-0.158,-9.442,-3.0480000000000003e-05,3.5600000000000002e-06,1.752e-05
1646352413.2710536,8357,1646352413,265839099,,0.010753352117084116,-0.00678237902087787,-0.9984942844777075,0.05336223963079235,0.001436,-7.7e-05,8.2e-05,0.219,-0.156,-9.477,-3.049e-05,3.19e-06,1.743e-05
1646352413.2952616,8358,1646352413,290741205,,0.010771066888199142,-0.006790440508462448,-0.9984954478053978,0.05333586736605132,-0.00059,-0.000209,-0.000882,0.22,-0.166,-9.481,-3.0480000000000003e-05,4.01e-06,1.751e-05
1646352413.3212135,8359,1646352413,315752983,,0.010789196514846704,-0.0067978438607798715,-0.9984933517179873,0.05337048933997012,0.000318,0.002351,0.000109,0.227,-0.157,-9.471,-3.0480000000000003e-05,3.5600000000000002e-06,1.742e-05
1646352413.346702,8360,1646352413,341095685,,0.010798960368208581,-0.00681461529639479,-0.9984922139701005,0.053387658821259204,-0.000493,0.00074,-0.002314,0.218,-0.164,-9.441,-3.0480000000000003e-05,3.4700000000000002e-06,1.742e-05
1646352413.37092,8361,1646352413,365757703,,0.010807901509172945,-0.0068232388186911345,-0.9984939300467145,0.053352641329721916,-0.000478,-0.000178,-0.001316,0.212,-0.15,-9.471,-3.057000000000001e-05,3.29e-06,1.6930000000000002e-05
1646352413.3960528,8362,1646352413,390969514,,0.010799188077324755,-0.0068237057514139955,-0.99849401743259,0.05335271059669941,-6.1e-05,-0.001323,-0.000577,0.206,-0.153,-9.48,-3.057000000000001e-05,3.6499999999999998e-06,1.751e-05
1646352413.4200735,8363,1646352413,415720224,,0.010790880606488515,-0.006832980356660067,-0.9984945107042603,0.05334397218657092,0.000461,0.00015,-0.001092,0.181,-0.155,-9.489,-3.0480000000000003e-05,3.92e-06,1.781e-05
1646352413.4459646,8364,1646352413,440877914,,0.010764740293139754,-0.006834380924315917,-0.9984947721671209,0.05334418017677149,-0.000717,-0.000434,-0.000852,0.163,-0.14,-9.449,-3.057000000000001e-05,3.4700000000000002e-06,1.742e-05
1646352413.4712598,8365,1646352413,465894699,,0.010746560866033891,-0.006817606266100944,-0.998493668344072,0.05337064690586929,-0.000825,-0.001064,0.000391,0.172,-0.128,-9.496,-3.074e-05,3.92e-06,1.77e-05
1646352413.4955034,8366,1646352413,490924119,,0.01072872768329801,-0.006809733298027826,-0.9984934356591335,0.05337959235819414,-0.000116,0.001185,0.000736,0.162,-0.129,-9.481,-3.074e-05,3.6499999999999998e-06,1.78e-05
1646352413.5202816,8367,1646352413,515769481,,0.010727389402767717,-0.006783499184805136,-0.9984931477300654,0.05338858671586125,-0.001288,0.000677,0.000128,0.203,-0.125,-9.448,-3.057000000000001e-05,3.5600000000000002e-06,1.752e-05
1646352413.5450628,8368,1646352413,540747165,,0.010718150946870142,-0.006775346449484179,-0.9984937594795171,0.0533800356053643,-0.000353,0.000115,0.00111,0.182,-0.11,-9.44,-3.04e-05,3.6400000000000003e-06,1.772e-05
1646352413.5704937,8369,1646352413,565827369,,0.010726280455481099,-0.006766353006470765,-0.9984946633450366,0.0533626334251265,0.000439,-0.000189,0.000252,0.217,-0.129,-9.434,-3.057000000000001e-05,3.4700000000000002e-06,1.771e-05
1646352413.5954225,8370,1646352413,590921401,,0.01072569683355477,-0.006757826696247331,-0.9984956535577908,0.05334529999895427,-1.1e-05,-0.000975,-0.00014,0.215,-0.102,-9.467,-3.04e-05,3.55e-06,1.7330000000000002e-05
1646352413.6217017,8371,1646352413,616531610,,0.010734121430946951,-0.006748365315591617,-0.9984942287585825,0.05337146558298978,-0.000508,-0.000724,0.000378,0.211,-0.137,-9.468,-3.049e-05,3.2800000000000004e-06,1.792e-05
1646352413.6458707,8372,1646352413,641090631,,0.01074318269193415,-0.006756799251102716,-0.9984950142978571,0.053353876258900396,0.001243,0.000241,1.9e-05,0.206,-0.143,-9.459,-3.049e-05,3.1e-06,1.743e-05
1646352413.670577,8373,1646352413,665784597,,0.010743766370766735,-0.006765325250560644,-0.9984940239443878,0.05337120952132084,0.000382,-0.000272,-0.000325,0.222,-0.14,-9.463,-3.057000000000001e-05,3.92e-06,1.771e-05
1646352413.6966395,8374,1646352413,691347122,,0.010744816252184966,-0.006782564726420587,-0.9984929740629696,0.053388448997180954,0.001596,-0.002156,-0.001454,0.183,-0.148,-9.45,-3.066e-05,3.29e-06,1.722e-05
1646352413.7216399,8375,1646352413,716056346,,0.010728261858069485,-0.006801019798762739,-0.9984934950472474,0.053379685981972895,0.000621,-0.000986,-0.00173,0.177,-0.15,-9.461,-3.066e-05,3.38e-06,1.751e-05
1646352413.7460165,8376,1646352413,741099596,,0.010702002842918019,-0.0068026080451067065,-0.998494686457744,0.05336246597175199,-0.000819,0.000355,-0.000229,0.21,-0.156,-9.485,-3.0480000000000003e-05,4.1000000000000006e-06,1.771e-05
1646352413.770446,8377,1646352413,765920162,,0.010711874943608314,-0.006828655488626074,-0.9984962835558097,0.05332726248970852,0.000367,2.6e-05,-0.000196,0.178,-0.16,-9.473,-3.031e-05,3.55e-06,1.7630000000000002e-05
1646352413.7955658,8378,1646352413,790904283,,0.010704737059831347,-0.006854982511999661,-0.9984947945377584,0.053353192034213064,0.00023,-0.000348,0.001939,0.191,-0.162,-9.489,-3.0480000000000003e-05,3.5600000000000002e-06,1.752e-05
1646352413.8209617,8379,1646352413,816046237,,0.010688061421592185,-0.006873623207823878,-0.9984962440135503,0.05332700383368636,-0.000394,-0.002051,0.000998,0.181,-0.154,-9.434,-3.066e-05,3.4700000000000002e-06,1.781e-05
1646352413.8462243,8380,1646352413,840922594,,0.010689052287112292,-0.006890956974487139,-0.9984956584918236,0.05333553080413636,-0.000492,0.000276,-0.000567,0.178,-0.128,-9.416,-3.04e-05,3.6400000000000003e-06,1.762e-05
1646352413.8702815,8381,1646352413,865820169,,0.010696834852470975,-0.0068730631589752735,-0.9984956922314313,0.05333564776232364,-0.000285,-0.000402,0.000369,0.193,-0.153,-9.444,-3.0390000000000002e-05,3.830000000000001e-06,1.732e-05
1646352413.8966343,8382,1646352413,891300201,,0.010696489214605677,-0.006864162952105748,-0.9984948211358313,0.05335316813810501,-0.000678,0.000818,0.000111,0.189,-0.162,-9.454,-3.057000000000001e-05,3.7400000000000006e-06,1.771e-05
1646352413.920471,8383,1646352413,915901660,,0.010696549115320338,-0.006864069607366783,-0.9984943555035865,0.053361881647169686,-0.000121,-0.000785,0.000562,0.187,-0.142,-9.439,-3.0390000000000002e-05,4.1000000000000006e-06,1.762e-05
1646352413.9458697,8384,1646352413,940879344,,0.010696322735202358,-0.006854982732149672,-0.9984925520732388,0.05339682898784283,0.000336,-9.4e-05,0.000216,0.213,-0.156,-9.462,-3.0480000000000003e-05,3.6499999999999998e-06,1.752e-05
1646352413.9714565,8385,1646352413,965873241,,0.010704976337339602,-0.0068546088420089355,-0.9984929315517062,0.053388046045158684,-0.000549,0.00061,0.000899,0.19,-0.14,-9.464,-3.04e-05,3.55e-06,1.752e-05
1646352413.998603,8386,1646352413,990926742,,0.010713749573339601,-0.00685404811374076,-0.9984923790809097,0.05339669008355539,-5.5e-05,-0.000386,-0.000169,0.208,-0.14,-9.442,-3.04e-05,3.2800000000000004e-06,1.7630000000000002e-05
1646352414.0202222,8387,1646352414,15674114,,0.010712757962474072,-0.006836714619836207,-0.9984929644921751,0.05338816357276681,-0.000538,5.9e-05,-0.00018,0.184,-0.112,-9.484,-3.057000000000001e-05,3.38e-06,1.762e-05
1646352414.04557,8388,1646352414,40924310,,0.01071235164759078,-0.006827907642038351,-0.9984925581772918,0.05339697055056454,-0.000468,-0.000216,0.001361,0.18,-0.114,-9.462,-3.031e-05,3.46e-06,1.7630000000000002e-05
1646352414.0714102,8389,1646352414,65841436,,0.01071194517899679,-0.006819100671333365,-0.9984921517086977,0.053405777521269605,0.000423,-0.000144,0.000808,0.19,-0.132,-9.471,-3.0480000000000003e-05,3.830000000000001e-06,1.781e-05
1646352414.0960057,8390,1646352414,90894222,,0.01071188567070954,-0.006819194150430047,-0.9984926177240067,0.053397064031434766,-0.000501,-0.000346,-0.000977,0.18,-0.127,-9.447,-3.057000000000001e-05,3.29e-06,1.742e-05
1646352414.120935,8391,1646352414,115960597,,0.01070329127354554,-0.006819474650239755,-0.9984917721666389,0.05341456015856913,0.00029,0.000573,-0.000231,0.182,-0.14,-9.401,-3.0480000000000003e-05,3.46e-06,1.713e-05
1646352414.1457522,8392,1646352414,141071557,,0.010703697815519603,-0.00682828154211368,-0.9984921787086128,0.05340575326669512,0.00032,0.000422,-0.000527,0.193,-0.135,-9.437,-3.0470000000000005e-05,4.3700000000000005e-06,1.741e-05
1646352414.1705067,8393,1646352414,165909290,,0.010704988345909232,-0.006845148014651031,-0.9984892617029086,0.05345784729253458,0.001626,-0.000562,-0.000545,0.196,-0.15,-9.453,-3.049e-05,3.2800000000000004e-06,1.7820000000000002e-05
1646352414.1957223,8394,1646352414,190791130,,0.010705215601804168,-0.0068542351636660765,-0.9984910673490204,0.05342289999105259,0.001363,0.00044,0.000462,0.199,-0.153,-9.465,-3.0390000000000002e-05,3.830000000000001e-06,1.762e-05
1646352414.2205055,8395,1646352414,215713024,,0.01070614800567443,-0.006871662119298225,-0.9984909475679703,0.05342271314165644,0.00054,0.000557,0.001009,0.151,-0.165,-9.45,-3.031e-05,3.3700000000000003e-06,1.773e-05
1646352414.2456522,8396,1646352414,241065979,,0.010715914037772046,-0.006888434505301676,-0.9984898084168771,0.05343988345823214,0.000593,-0.00042,0.000256,0.207,-0.148,-9.463,-3.0480000000000003e-05,3.4700000000000002e-06,1.752e-05
1646352414.2705839,8397,1646352414,265994310,,0.010717252745519625,-0.006914668430931663,-0.9984900940463977,0.053430889430134826,0.00094,0.00032,0.000731,0.187,-0.167,-9.466,-3.057000000000001e-05,3.4700000000000002e-06,1.692e-05
1646352414.2957695,8398,1646352414,290894746,,0.010726432414240006,-0.006922914280325066,-0.998489947091359,0.0534307258328502,-0.001653,0.000897,-0.000465,0.205,-0.152,-9.525,-3.049e-05,3.2800000000000004e-06,1.812e-05
1646352414.3212636,8399,1646352414,316231012,,0.010726372000007565,-0.006923007885842768,-0.998490413324383,0.053422012362253544,-0.000231,0.00124,-0.000321,0.192,-0.149,-9.481,-3.0390000000000002e-05,4.1900000000000005e-06,1.7610000000000002e-05
1646352414.3464935,8400,1646352414,341081380,,0.010743798799031281,-0.0069220727959626,-0.9984902399447351,0.05342187221240653,-0.00045,0.000399,-0.000728,0.196,-0.139,-9.466,-3.066e-05,3.29e-06,1.7610000000000002e-05
1646352414.370709,8401,1646352414,365905523,,0.010734032490908532,-0.006905300741623755,-0.9984913795815983,0.053404702689821726,-0.000845,-0.00122,-0.001169,0.202,-0.134,-9.44,-3.066e-05,3.38e-06,1.741e-05
1646352414.3961272,8402,1646352414,391175508,,0.01074240021400557,-0.0068959323802393335,-0.9984904208219999,0.053422153466093934,-0.001641,-0.000144,-0.001377,0.191,-0.137,-9.49,-3.04e-05,3.2800000000000004e-06,1.773e-05
1646352414.420534,8403,1646352414,415779590,,0.01073275441774548,-0.0068789729752159546,-0.9984906277748901,0.053422410644974404,-0.001492,-0.000379,0.000229,0.211,-0.141,-9.467,-3.0480000000000003e-05,3.5600000000000002e-06,1.732e-05
1646352414.4458234,8404,1646352414,441061019,,0.010740415672472648,-0.0068612659419207715,-0.9984915931740713,0.05340510145633445,-9.5e-05,-0.000901,0.000861,0.199,-0.128,-9.457,-3.0480000000000003e-05,3.5600000000000002e-06,1.752e-05
1646352414.4705772,8405,1646352414,465743064,,0.010730949343084382,-0.006844025428083821,-0.9984904010482611,0.05343149873079053,0.000356,-0.000729,0.000672,0.181,-0.141,-9.47,-3.0480000000000003e-05,3.92e-06,1.771e-05
1646352414.4955418,8406,1646352414,490828752,,0.010721829315987079,-0.006835686003099698,-0.9984900811104,0.053440375158979765,-0.000355,-7.2e-05,-0.000898,0.196,-0.086,-9.461,-3.0390000000000002e-05,3.830000000000001e-06,1.762e-05
1646352414.5203023,8407,1646352414,515780210,,0.010720837102910904,-0.006818352619808199,-0.998490666582412,0.05343184880925713,-3.9e-05,-0.001309,-0.001956,0.189,-0.129,-9.464,-3.065e-05,3.7400000000000006e-06,1.8e-05
1646352414.545102,8408,1646352414,540710210,,0.010729550506041413,-0.0068178850081696205,-0.9984905798822505,0.05343177964807667,-6.3e-05,0.001108,0.000124,0.205,-0.126,-9.458,-3.0480000000000003e-05,3.4700000000000002e-06,1.742e-05
1646352414.5703886,8409,1646352414,565757274,,0.01072961000290357,-0.006817791374918219,-0.9984901135639908,0.05344049312012666,-0.000268,9.7e-05,-0.000386,0.206,-0.148,-9.49,-3.057000000000001e-05,3.29e-06,1.732e-05
1646352414.5955522,8410,1646352414,590787649,,0.010729957212154207,-0.006826692118795364,-0.9984909865883632,0.05342297253745105,-3e-06,-0.000318,0.000855,0.192,-0.143,-9.502,-3.04e-05,3.6400000000000003e-06,1.7230000000000003e-05
1646352414.6205153,8411,1646352414,615887165,,0.010730304113161433,-0.0068355928763466625,-0.99849185922927,0.05340545193651302,0.000607,-0.000342,0.000507,0.19,-0.145,-9.462,-3.057000000000001e-05,3.7400000000000006e-06,1.781e-05
1646352414.645345,8412,1646352414,640975475,,0.010730363764553863,-0.006835499236518126,-0.998491393140763,0.053414165419728425,-0.000844,7.5e-05,-0.000405,0.198,-0.147,-9.44,-3.0480000000000003e-05,3.7400000000000006e-06,1.752e-05
1646352414.6701343,8413,1646352414,665917158,,0.010721590699000243,-0.006836060261381885,-0.9984919459230848,0.05340552124750144,0.000938,-0.000816,-0.000117,0.182,-0.158,-9.474,-3.057000000000001e-05,3.6499999999999998e-06,1.7610000000000002e-05
1646352414.6962917,8414,1646352414,691231966,,0.010730304113161433,-0.0068355928763466625,-0.99849185922927,0.05340545193651302,-0.001479,0.001633,0.000705,0.172,-0.139,-9.46,-3.057000000000001e-05,3.6499999999999998e-06,1.7610000000000002e-05
1646352414.7215433,8415,1646352414,715942382,,0.010721650354471708,-0.006835966697592214,-0.9984914798339729,0.05341423473147339,-0.000862,-0.000206,0.00199,0.204,-0.145,-9.478,-3.0390000000000002e-05,3.830000000000001e-06,1.752e-05
1646352414.7461872,8416,1646352414,741062164,,0.010722116481195202,-0.006844680179269916,-0.9984914201408899,0.053414141165389555,0.000113,-0.000867,-0.000306,0.195,-0.144,-9.471,-3.04e-05,3.2800000000000004e-06,1.743e-05
1646352414.770507,8417,1646352414,765773773,,0.010722462991184711,-0.006853580803753337,-0.9984922924706858,0.053396620625312086,-0.000256,0.000174,-0.00085,0.202,-0.159,-9.482,-3.0480000000000003e-05,3.46e-06,1.713e-05
1646352414.7956007,8418,1646352414,790852069,,0.010731762140457134,-0.006861639677717349,-0.9984912138456339,0.05341388448115727,0.000517,0.000309,0.000483,0.199,-0.154,-9.452,-3.03e-05,4.1000000000000006e-06,1.772e-05
1646352414.8213544,8419,1646352414,815913915,,0.010731642380618137,-0.006861826981256146,-0.9984921459417055,0.053396457513788735,-0.000603,0.000205,4.6e-05,0.206,-0.141,-9.48,-3.065e-05,3.7400000000000006e-06,1.81e-05
1646352414.8457859,8420,1646352414,841058492,,0.010730949343084382,-0.006844025428083821,-0.9984904010482611,0.05343149873079053,0.000247,-0.000181,0.000239,0.215,-0.148,-9.438,-3.049e-05,3.19e-06,1.772e-05
1646352414.868023,8421,1646352414,865789175,,0.010730829890672164,-0.0068442127174393064,-0.9984913334517594,0.05341407177760576,2.5e-05,0.000503,0.001142,0.185,-0.145,-9.462,-3.0480000000000003e-05,3.5600000000000002e-06,1.772e-05
1646352414.8952382,8422,1646352414,890742301,,0.010730304113161433,-0.0068355928763466625,-0.99849185922927,0.05340545193651302,-0.000378,-0.000656,-0.000133,0.208,-0.132,-9.473,-3.0480000000000003e-05,3.5600000000000002e-06,1.802e-05
1646352414.9211538,8423,1646352414,915754795,,0.01072977848609539,-0.006826973026078787,-0.9984923848563362,0.05339683208624505,-0.000807,0.002358,-0.000786,0.195,-0.146,-9.461,-3.0390000000000002e-05,4.28e-06,1.771e-05
1646352414.946518,8424,1646352414,940771579,,0.010729897637618394,-0.006826785755076395,-0.9984914527537271,0.053414259057783374,-0.000243,-0.000873,0.000433,0.207,-0.126,-9.47,-3.04e-05,3.3700000000000003e-06,1.7230000000000003e-05
1646352414.970673,8425,1646352414,965925455,,0.010730076358774427,-0.006826504844673658,-0.9984900540295174,0.05344039948458079,0.0001,1.7e-05,0.000211,0.208,-0.131,-9.489,-3.056e-05,3.92e-06,1.7910000000000003e-05
1646352414.9953756,8426,1646352414,990844249,,0.010738382893099328,-0.006817229976912336,-0.9984895603946979,0.05344913742134287,-0.001225,0.000238,6e-05,0.192,-0.137,-9.487,-3.057000000000001e-05,3.38e-06,1.752e-05
1646352415.020216,8427,1646352415,15772104,,0.010738789756402899,-0.006826037155719864,-0.9984899672580015,0.05344033024253526,-0.000606,0.000905,9.6e-05,0.194,-0.127,-9.471,-3.04e-05,3.46e-06,1.7230000000000003e-05
1646352415.0464234,8428,1646352415,40842294,,0.01073873018758238,-0.006826130869079412,-0.9984904335748399,0.05343161677176204,-0.000431,-0.000507,-0.000547,0.202,-0.143,-9.475,-3.0480000000000003e-05,3.7400000000000006e-06,1.752e-05
1646352415.0711887,8429,1646352415,65774917,,0.01073919646599214,-0.006834844341627156,-0.9984903739675909,0.053431523056627885,-0.00044,0.000714,0.001303,0.194,-0.153,-9.449,-3.057000000000001e-05,3.38e-06,1.781e-05
1646352415.095269,8430,1646352415,90812444,,0.010747790582266015,-0.00683456431280833,-0.9984912195262251,0.053414026784035354,-0.000567,-0.0009,-0.001103,0.177,-0.151,-9.497,-3.04e-05,3.6400000000000003e-06,1.772e-05
1646352415.1205,8431,1646352415,115758180,,0.010748196987900015,-0.006843371588188093,-0.998491625931859,0.0534052195086555,0.000631,-0.000259,-0.000311,0.2,-0.124,-9.477,-3.056e-05,4.01e-06,1.79e-05
1646352415.1460614,8432,1646352415,140961885,,0.010748316425629116,-0.006843183995719707,-0.998490693682862,0.0534226464669466,0.000434,0.000175,0.000328,0.177,-0.141,-9.493,-3.057000000000001e-05,3.4700000000000002e-06,1.762e-05
1646352415.1708255,8433,1646352415,165893554,,0.010748603239818,-0.006852178870659632,-0.998492032183777,0.05339641222618388,0.000901,0.000117,0.000956,0.189,-0.119,-9.468,-3.066e-05,3.29e-06,1.712e-05
1646352415.1961024,8434,1646352415,190666437,,0.010739650615404796,-0.006853021070915265,-0.998493982302632,0.053361627714038185,-0.000882,0.000115,-0.000263,0.201,-0.163,-9.479,-3.066e-05,3.2000000000000003e-06,1.752e-05
1646352415.2204502,8435,1646352415,215788841,,0.01074005640270546,-0.006861828299364791,-0.9984943880899327,0.0533528204855888,0.000429,-6e-06,0.000793,0.203,-0.152,-9.47,-3.0140000000000003e-05,3.7300000000000003e-06,1.7440000000000002e-05
1646352415.2438655,8436,1646352415,240872144,,0.010731748596836866,-0.006871102391206783,-0.9984948804813101,0.053344082863969536,0.001125,0.000773,7.9e-05,0.172,-0.157,-9.474,-3.04e-05,3.3700000000000003e-06,1.7530000000000003e-05
1646352415.2702148,8437,1646352415,265753507,,0.010731688634748247,-0.0068711960431189064,-0.9984953459582314,0.053335369350324,-0.000258,0.000498,-0.000332,0.206,-0.141,-9.452,-3.049e-05,3.3700000000000003e-06,1.703e-05
1646352415.2960997,8438,1646352415,290893077,,0.010766302612575909,-0.006869704737933093,-0.9984968596059622,0.05330023679027448,-0.00082,0.000958,-0.00157,0.202,-0.154,-9.461,-3.04e-05,3.3700000000000003e-06,1.7820000000000002e-05
1646352415.3213603,8439,1646352415,315905570,,0.010783669583084335,-0.006868865886524631,-0.9984971504930217,0.05329138400409681,-0.001771,0.001144,0.000436,0.205,-0.143,-9.442,-3.04e-05,3.2800000000000004e-06,1.7630000000000002e-05
1646352415.3454156,8440,1646352415,340782165,,0.010799987041343538,-0.006850788764070953,-0.9984984905218742,0.05326529262808382,0.000174,0.000194,0.001563,0.232,-0.139,-9.457,-3.04e-05,3.55e-06,1.762e-05
1646352415.3705416,8441,1646352415,365955114,,0.010808235684918063,-0.006841609046836391,-0.9984984628844807,0.053265317462291996,0.000221,-0.000248,0.000283,0.217,-0.129,-9.469,-3.0390000000000002e-05,3.7400000000000006e-06,1.772e-05
1646352415.3956056,8442,1646352415,390773773,,0.01079958192152453,-0.006841980976821647,-0.9984980854020553,0.053274100415332995,-5.6e-05,-0.000288,0.000471,0.219,-0.142,-9.458,-3.0480000000000003e-05,3.7400000000000006e-06,1.742e-05
1646352415.4213831,8443,1646352415,416208028,,0.010791333357842063,-0.006851160766279689,-0.9984981129595567,0.0532740756533483,0.000235,-0.001639,0.000121,0.186,-0.114,-9.456,-3.049e-05,3.2800000000000004e-06,1.752e-05
1646352415.4465685,8444,1646352415,441033124,,0.010773262351786437,-0.006843661769075148,-0.9984997414713076,0.053248167983716135,-0.001033,-0.000521,0.00114,0.193,-0.106,-9.463,-3.0480000000000003e-05,3.6499999999999998e-06,1.732e-05
1646352415.471239,8445,1646352415,466262102,,0.010755490012853364,-0.0068356925344526896,-0.9984990457372733,0.05326582773141188,-0.000262,-0.00155,-0.001672,0.188,-0.107,-9.512,-3.066e-05,3.4700000000000002e-06,1.721e-05
1646352415.4956515,8446,1646352415,490824699,,0.01072017126555271,-0.0068288436599569366,-0.9984994526384023,0.05326619850445319,0.000635,-0.001194,0.000719,0.19,-0.109,-9.497,-3.04e-05,3.55e-06,1.7230000000000003e-05
1646352415.5209367,8447,1646352415,515765905,,0.01070216041470869,-0.006821249229390546,-0.9985006149109302,0.05324900321980384,0.001205,0.000674,0.000891,0.189,-0.123,-9.48,-3.04e-05,3.2800000000000004e-06,1.792e-05
1646352415.546722,8448,1646352415,540834665,,0.010692803869726583,-0.006813281619262945,-0.9985021546060362,0.053223024961793104,0.00092,-0.000291,-0.001484,0.202,-0.131,-9.487,-3.057000000000001e-05,3.38e-06,1.762e-05
1646352415.571152,8449,1646352415,566053152,,0.010684673896473871,-0.00682227449701614,-0.9985012524527191,0.053240427916806395,0.000482,0.00132,-0.000614,0.188,-0.131,-9.41,-3.057000000000001e-05,3.38e-06,1.762e-05
1646352415.5958488,8450,1646352415,591195821,,0.010685019281587866,-0.006831174553784092,-0.9985021219461773,0.05322290753190055,0.001227,0.001478,-0.000548,0.175,-0.136,-9.431,-3.0480000000000003e-05,3.4700000000000002e-06,1.772e-05
1646352415.6205773,8451,1646352415,615891695,,0.010677115151391565,-0.006849253840576143,-0.9985030176507067,0.053205363228756596,0.000534,0.001352,-0.00119,0.181,-0.184,-9.441,-3.057000000000001e-05,3.29e-06,1.722e-05
1646352415.6458533,8452,1646352415,641035079,,0.010678448061341451,-0.006875487773400246,-0.9985033022594033,0.05319637010121978,0.000761,0.001015,-0.001712,0.207,-0.19,-9.472,-3.057000000000001e-05,3.38e-06,1.762e-05
1646352415.6707637,8453,1646352415,665874958,,0.010678508060884509,-0.00687539458609961,-0.9985028379954789,0.05320508368430243,-0.00134,3e-06,0.000773,0.189,-0.205,-9.436,-3.057000000000001e-05,3.7400000000000006e-06,1.771e-05
1646352415.6953864,8454,1646352415,690897464,,0.010678043758533363,-0.006866681004781161,-0.9985028979565952,0.05320517686983896,-0.00139,0.000106,-0.0009,0.206,-0.201,-9.499,-3.04e-05,3.1e-06,1.7530000000000003e-05
1646352415.720546,8455,1646352415,715709686,,0.010677340060640878,-0.006858340136596878,-0.9985048144476316,0.05317041569050542,-0.001228,0.001189,-0.000522,0.208,-0.165,-9.486,-3.0480000000000003e-05,3.4700000000000002e-06,1.7820000000000002e-05
1646352415.7460248,8456,1646352415,740732908,,0.010694647427643172,-0.0068575961321794355,-0.9985055695722665,0.05315284963997712,0.000497,0.000728,-0.001002,0.215,-0.176,-9.519,-3.0480000000000003e-05,3.5600000000000002e-06,1.772e-05
1646352415.7704403,8457,1646352415,765933990,,0.010693898805320198,-0.006839888958075296,-0.9985042972223984,0.05317917708828525,-0.00108,-0.000619,0.000189,0.226,-0.154,-9.5,-3.049e-05,3.19e-06,1.762e-05
1646352415.7975929,8458,1646352415,790861606,,0.010701446036479921,-0.006822369919604693,-0.9985061856586053,0.05314444018814436,-0.001429,0.000114,-0.000755,0.226,-0.095,-9.464,-3.0480000000000003e-05,3.5600000000000002e-06,1.762e-05
1646352415.8197632,8459,1646352415,816140651,,0.010708126792278092,-0.006787330716524438,-0.9985077275956721,0.053118604029774176,-0.001936,-0.001155,-0.001428,0.202,-0.093,-9.448,-3.0480000000000003e-05,3.4700000000000002e-06,1.752e-05
1646352415.844964,8460,1646352415,840815782,,0.010698604304857976,-0.00677018161184584,-0.9985070052479272,0.05313628682629944,-0.001082,-0.001611,-0.000621,0.216,-0.091,-9.409,-3.057000000000001e-05,3.7400000000000006e-06,1.7610000000000002e-05
1646352415.868412,8461,1646352415,865448474,,0.010698604304857976,-0.00677018161184584,-0.9985070052479272,0.05313628682629944,0.000533,-0.001433,-0.000176,0.199,-0.095,-9.444,-3.049e-05,3.2800000000000004e-06,1.752e-05
1646352415.8948128,8462,1646352415,890738487,,0.010681118119452333,-0.006771204862350199,-0.9985076418704529,0.05312771053544408,0.000599,-0.001431,-0.001278,0.193,-0.112,-9.423,-3.0480000000000003e-05,3.5600000000000002e-06,1.762e-05
1646352415.919622,8463,1646352415,915791034,,0.0106728090227379,-0.006780476567051513,-0.9985081326923906,0.05311897243210909,0.001364,-0.001498,0.000138,0.185,-0.107,-9.455,-3.0220000000000005e-05,3.55e-06,1.734e-05
1646352415.9455326,8464,1646352415,940697193,,0.010664677516125393,-0.0067894689294428654,-0.9985072325127965,0.05313637534466982,0.002414,0.000619,0.000858,0.171,-0.144,-9.484,-3.057000000000001e-05,3.6499999999999998e-06,1.732e-05
1646352415.9709265,8465,1646352415,965874671,,0.010656891370808351,-0.006807361188377977,-0.9985072000586376,0.053136258157887584,0.000805,0.000219,-0.000489,0.185,-0.166,-9.51,-3.0480000000000003e-05,3.6499999999999998e-06,1.7910000000000003e-05
1646352415.9962156,8466,1646352415,991295814,,0.010666068619524014,-0.006815609785331652,-0.9985070544227325,0.053136096125855826,-0.000499,-0.000841,-0.000493,0.178,-0.154,-9.471,-3.04e-05,3.55e-06,1.772e-05
1646352416.0204678,8467,1646352416,15712261,,0.010666532319032402,-0.0068243234029240546,-0.9985069949072966,0.05313600304482472,0.000168,0.000507,0.000403,0.164,-0.179,-9.479,-3.058e-05,3.1e-06,1.732e-05
1646352416.0466063,8468,1646352416,41089057,,0.010658103566824038,-0.006833781074251741,-0.9985084122546531,0.053109838272014,-0.000628,0.000189,0.000552,0.219,-0.176,-9.501,-3.0480000000000003e-05,3.830000000000001e-06,1.771e-05
1646352416.0711703,8469,1646352416,66428422,,0.010675815037271082,-0.006841844605608351,-0.9985095702044904,0.05308346584132048,0.000527,0.000188,0.000284,0.174,-0.181,-9.434,-3.04e-05,3.55e-06,1.7820000000000002e-05
1646352416.0957963,8470,1646352416,90887308,,0.010676278277493222,-0.006850558245154094,-0.9985095104601123,0.05308337267523784,-0.000391,0.000724,0.000234,0.208,-0.169,-9.454,-3.057000000000001e-05,3.29e-06,1.742e-05
1646352416.1203818,8471,1646352416,115794181,,0.01068505162351998,-0.00685000043102815,-0.99850896085095,0.053092016972927744,-0.0009,0.000709,-0.001203,0.201,-0.146,-9.438,-3.0390000000000002e-05,3.7400000000000006e-06,1.742e-05
1646352416.1440604,8472,1646352416,140916585,,0.010685111400643765,-0.006849907186101534,-0.9985084974976782,0.05310073060539488,-0.001279,-0.001599,-6e-05,0.24,-0.15,-9.423,-3.049e-05,3.19e-06,1.7820000000000002e-05
1646352416.1716204,8473,1646352416,165872335,,0.010684707709214085,-0.0068411003139915005,-0.9985080938062486,0.053109537477505006,-0.000643,0.000366,-0.000478,0.234,-0.144,-9.466,-3.049e-05,3.3700000000000003e-06,1.732e-05
1646352416.1954327,8474,1646352416,190757989,,0.010692375239137878,-0.006823394881196849,-0.9985090534218268,0.053092227573234514,-0.001991,-0.000245,-0.00099,0.214,-0.126,-9.461,-3.049e-05,3.19e-06,1.792e-05
1646352416.220583,8475,1646352416,215745449,,0.010700566020798379,-0.0068143099821691136,-0.9985094897088133,0.05308353819920769,-0.000296,-0.00135,-0.000892,0.207,-0.139,-9.489,-3.04e-05,3.3700000000000003e-06,1.743e-05
1646352416.2446427,8476,1646352416,240799188,,0.010690225748140155,-0.0067890067914157335,-0.9985116066461329,0.053049032537818966,-0.001238,0.00106,0.000792,0.206,-0.137,-9.448,-3.0480000000000003e-05,3.4700000000000002e-06,1.742e-05
1646352416.269496,8477,1646352416,264951229,,0.010689585296269264,-0.006780572988591936,-0.9985130543340547,0.05302298483315756,-0.000726,0.000208,-0.00045,0.177,-0.133,-9.479,-3.092e-05,3.38e-06,1.76e-05
1646352416.2967896,8478,1646352416,290757894,,0.010679828218435845,-0.006763796076751532,-0.9985141842560341,0.05300581261865135,0.000174,-0.001386,-0.000796,0.169,-0.107,-9.499,-3.057000000000001e-05,3.38e-06,1.762e-05
1646352416.3203278,8479,1646352416,315891742,,0.010670593090218962,-0.006755639392238636,-0.9985147921515425,0.05299726062795077,-0.000697,-0.000719,-0.000981,0.19,-0.124,-9.469,-3.065e-05,3.830000000000001e-06,1.751e-05
1646352416.3456905,8480,1646352416,340953588,,0.010661416984843821,-0.006747389506364368,-0.9985149373781074,0.05299742215918682,-0.001155,-0.000509,-0.000212,0.186,-0.111,-9.457,-3.057000000000001e-05,3.4700000000000002e-06,1.732e-05
1646352416.3704014,8481,1646352416,365861177,,0.010643930858582049,-0.006748409990417805,-0.9985155722239333,0.05298884528643817,0.000103,-0.000311,0.000962,0.184,-0.108,-9.466,-3.031e-05,3.46e-06,1.773e-05
1646352416.3955681,8482,1646352416,391062736,,0.010634116170350927,-0.0067317247285148055,-0.9985171628540906,0.05296295819978732,0.000431,0.001344,-0.000267,0.207,-0.142,-9.471,-3.031e-05,3.6400000000000003e-06,1.7330000000000002e-05
1646352416.421535,8483,1646352416,415823698,,0.010642829806784044,-0.0067312612359626284,-0.998517076761227,0.05296288995221906,0.00024,0.000556,0.000108,0.197,-0.153,-9.442,-3.0480000000000003e-05,3.4700000000000002e-06,1.7820000000000002e-05
1646352416.4456384,8484,1646352416,441093921,,0.010643813074987286,-0.006748595761028792,-0.9985164969016677,0.05297141789400069,0.001656,-0.001099,0.00018,0.21,-0.154,-9.465,-3.057000000000001e-05,3.19e-06,1.732e-05
1646352416.4712553,8485,1646352416,466414928,,0.01065339218715664,-0.006765652557036005,-0.998516755034827,0.052962449859343744,-0.000721,-0.00212,0.00059,0.2,-0.159,-9.442,-3.0390000000000002e-05,3.7400000000000006e-06,1.762e-05
1646352416.495866,8486,1646352416,490852594,,0.010662804450457674,-0.006773530563980477,-0.9985147603896776,0.05299714302578094,-0.000824,-0.000189,0.001231,0.19,-0.16,-9.427,-3.0480000000000003e-05,3.6499999999999998e-06,1.772e-05
1646352416.5210457,8487,1646352416,515995979,,0.01067139985134537,-0.0067732530140565406,-0.998515598912669,0.05297964700613269,-0.001384,0.000862,0.000728,0.221,-0.147,-9.454,-3.057000000000001e-05,3.7400000000000006e-06,1.7610000000000002e-05
1646352416.5463006,8488,1646352416,541232585,,0.01068155980336679,-0.006798837222333313,-0.998514872514045,0.05298801242594227,5e-06,-0.000151,0.000294,0.203,-0.16,-9.451,-3.04e-05,3.3700000000000003e-06,1.7530000000000003e-05
1646352416.571094,8489,1646352416,566074132,,0.010681903394796218,-0.00680773734357356,-0.9985157378065485,0.05297049183054182,0.000209,0.000704,0.000139,0.196,-0.143,-9.488,-3.057000000000001e-05,3.29e-06,1.712e-05
1646352416.5959659,8490,1646352416,591106414,,0.010672549501473212,-0.006799766635382064,-0.9985172699676039,0.05294451281564697,-0.001925,0.00058,-0.000309,0.202,-0.166,-9.451,-3.0390000000000002e-05,3.92e-06,1.752e-05
1646352416.6208458,8491,1646352416,616213083,,0.01067231213833886,-0.0068001391734961005,-0.998519117471411,0.05290965795540036,-0.000551,0.000235,-0.001011,0.215,-0.134,-9.494,-3.0390000000000002e-05,3.7400000000000006e-06,1.762e-05
1646352416.6469069,8492,1646352416,641162633,,0.01067208747303209,-0.00679105292812378,-0.9985173292687413,0.05294460594919518,-0.000871,3.7e-05,-0.00098,0.196,-0.131,-9.475,-3.0480000000000003e-05,3.4700000000000002e-06,1.762e-05
1646352416.6718812,8493,1646352416,666048288,,0.010662508889281717,-0.006773995810145298,-0.9985170718757611,0.05295357454984883,0.000462,-0.000796,0.000457,0.187,-0.119,-9.474,-3.04e-05,3.55e-06,1.762e-05
1646352416.6961293,8494,1646352416,690946817,,0.01067018039178357,-0.006756291209072659,-0.9985180277069537,0.05293626473147225,-0.000938,0.001465,-0.000564,0.203,-0.116,-9.45,-3.049e-05,3.19e-06,1.713e-05
1646352416.7206383,8495,1646352416,715731143,,0.010669256478045182,-0.006738863780820496,-0.9985181454743973,0.0529364509531892,-0.000101,0.00067,-0.000786,0.196,-0.11,-9.485,-3.0390000000000002e-05,3.7400000000000006e-06,1.752e-05
1646352416.745865,8496,1646352416,740944385,,0.010686339255260037,-0.006729037021671944,-0.9985171073036943,0.05295383495031415,-0.000594,0.001084,-0.001149,0.175,-0.122,-9.472,-3.0480000000000003e-05,3.7400000000000006e-06,1.772e-05
1646352416.7705796,8497,1646352416,766029596,,0.010686053079458392,-0.0067200435579233995,-0.9985157793148146,0.05298006930432637,0.00052,0.000482,0.001376,0.202,-0.135,-9.46,-3.057000000000001e-05,3.38e-06,1.772e-05
1646352416.795939,8498,1646352416,791166067,,0.010676759970732886,-0.006711979855000881,-0.9985168489275892,0.05296280327429415,0.000436,-9.7e-05,0.001068,0.188,-0.134,-9.459,-3.031e-05,3.82e-06,1.762e-05
1646352416.8207135,8499,1646352416,816145420,,0.01067641477511612,-0.0067030798138510185,-0.9985159829336353,0.05298032384418935,0.000257,-0.001359,-0.000793,0.202,-0.102,-9.461,-3.031e-05,3.55e-06,1.7330000000000002e-05
1646352416.8456395,8500,1646352416,841108560,,0.010684724475737699,-0.006693809232094217,-0.998515492524172,0.0529890627398918,0.000885,0.000925,0.000646,0.175,-0.128,-9.453,-3.0390000000000002e-05,3.7400000000000006e-06,1.732e-05
1646352416.8707986,8501,1646352416,866019487,,0.010693321274992664,-0.006693532146049749,-0.9985163306410039,0.05297156738048473,0.000348,0.000976,-0.00096,0.221,-0.124,-9.449,-3.075e-05,3.29e-06,1.741e-05
1646352416.8959434,8502,1646352416,890882730,,0.010693783538715853,-0.006702245844597078,-0.9985162721908958,0.05297147406163561,7e-05,-0.000137,-0.000938,0.187,-0.136,-9.482,-3.049e-05,3.2800000000000004e-06,1.7230000000000003e-05
1646352416.9212062,8503,1646352416,916088342,,0.010703076548134575,-0.0067103091690616495,-0.9985152023562013,0.05298874000025845,0.000495,3.8e-05,-0.001071,0.21,-0.15,-9.431,-3.057000000000001e-05,3.5600000000000002e-06,1.781e-05
1646352416.945852,8504,1646352416,940970182,,0.010694825342512855,-0.006719486581268147,-0.9985152303870988,0.052988714798306635,0.000282,-0.001736,-0.001472,0.212,-0.152,-9.464,-3.04e-05,3.46e-06,1.7630000000000002e-05
1646352416.9704673,8505,1646352416,965884685,,0.01068697775447806,-0.006737470944881155,-0.9985156618758461,0.05297988278944678,-1.7e-05,-0.000952,-0.000404,0.187,-0.136,-9.475,-3.04e-05,3.3700000000000003e-06,1.773e-05
